[
    {
        "name": "Alturas537",
        "street": "903 W C St",
        "city": "Alturas",
        "state": "CA",
        "longitude": -120.55037899999996,
        "latitude": 41.492642000000046
    },
    {
        "name": "Anaheim698",
        "street": "3170 West Lincoln Avenue",
        "city": "Anaheim",
        "state": "CA",
        "longitude": -118.00033097993598,
        "latitude": 33.8314260141139
    },
    {
        "name": "Arleta587",
        "street": "14400 Van Nuys Blvd",
        "city": "Arleta",
        "state": "CA",
        "longitude": -118.44528899999995,
        "latitude": 34.24787500000008
    },
    {
        "name": "Arvin661",
        "street": "317 Campus Dr",
        "city": "Arvin",
        "state": "CA",
        "longitude": -118.83371599999998,
        "latitude": 35.21173600000003
    },
    {
        "name": "Auburn570",
        "street": "11722 Enterprise Dr",
        "city": "Auburn",
        "state": "CA",
        "longitude": -121.08435399999996,
        "latitude": 38.90719300000006
    },
    {
        "name": "Bakersfield529",
        "street": "3120 F St",
        "city": "Bakersfield",
        "state": "CA",
        "longitude": -119.02246299999996,
        "latitude": 35.388288000000045
    },
    {
        "name": "BakersfieldSW679",
        "street": "7000 Schirra Ct",
        "city": "Bakersfield",
        "state": "CA",
        "longitude": -119.07966599999997,
        "latitude": 35.31703100000004
    },
    {
        "name": "Banning641",
        "street": "1034 W. Ramsey St.  #B",
        "city": "Banning",
        "state": "CA",
        "longitude": -116.888038,
        "latitude": 33.92503100000005
    },
    {
        "name": "Barstow582",
        "street": "528 East Virginia Way",
        "city": "Barstow",
        "state": "CA",
        "longitude": -117.01981599999999,
        "latitude": 34.88694300000003
    },
    {
        "name": "Bellflower606",
        "street": "9520 Artesia Blvd",
        "city": "Bellflower",
        "state": "CA",
        "longitude": -118.13122299999998,
        "latitude": 33.87356200000005
    },
    {
        "name": "BellGardens576",
        "street": "6801 S. Garfield Ave.",
        "city": "Bell Gardens",
        "state": "CA",
        "longitude": -118.14962699999995,
        "latitude": 33.969846000000075
    },
    {
        "name": "Bishop585",
        "street": "1115 West Line Street",
        "city": "Bishop",
        "state": "CA",
        "longitude": -118.41165999999998,
        "latitude": 37.36170200000004
    },
    {
        "name": "Blythe528",
        "street": "430-B  S. Broadway",
        "city": "Blythe",
        "state": "CA",
        "longitude": -114.59620299999995,
        "latitude": 33.60419600000006
    },
    {
        "name": "Brawley597",
        "street": "1175 E Main St",
        "city": "Brawley",
        "state": "CA",
        "longitude": -115.52251199999995,
        "latitude": 32.978864000000044
    },
    {
        "name": "Capitola550",
        "street": "4200 Capitola Rd",
        "city": "Capitola",
        "state": "CA",
        "longitude": -121.96280699999994,
        "latitude": 36.973272000000065
    },
    {
        "name": "Carmichael625",
        "street": "5209 North Ave",
        "city": "Carmichael",
        "state": "CA",
        "longitude": -121.34327899999994,
        "latitude": 38.62517600000007
    },
    {
        "name": "Chico520",
        "street": "107 Parmac Rd. #1",
        "city": "Chico",
        "state": "CA",
        "longitude": -121.85000700962264,
        "latitude": 39.753481000547055
    },
    {
        "name": "ChulaVista613",
        "street": "30 N Glover Ave",
        "city": "Chula Vista",
        "state": "CA",
        "longitude": -117.08708999999999,
        "latitude": 32.651602000000025
    },
    {
        "name": "Clearlake830",
        "street": "14844 Olympic Dr",
        "city": "Clearlake",
        "state": "CA",
        "longitude": -122.63388399797743,
        "latitude": 38.96187986648558
    },
    {
        "name": "Clovis580",
        "street": "2103 Shaw Avenue",
        "city": "Clovis",
        "state": "CA",
        "longitude": -119.67652499999997,
        "latitude": 36.80956500000008
    },
    {
        "name": "Coalinga603",
        "street": "406 E. Elm St.",
        "city": "Coalinga",
        "state": "CA",
        "longitude": -120.35662499999995,
        "latitude": 36.143184000000076
    },
    {
        "name": "Colusa564",
        "street": "1025 Bridge St",
        "city": "Suite B Colusa",
        "state": "CA",
        "longitude": -122.00292703788864,
        "latitude": 39.203590014578594
    },
    {
        "name": "Compton581",
        "street": "2111 S Santa Fe Ave",
        "city": "Compton",
        "state": "CA",
        "longitude": -118.21544799999998,
        "latitude": 33.87640000000005
    },
    {
        "name": "Concord523",
        "street": "2070 Diamond Blvd",
        "city": "Concord",
        "state": "CA",
        "longitude": -122.05629899999997,
        "latitude": 37.97484000000003
    },
    {
        "name": "CorteMadera534",
        "street": "75 Tamal Vista Blvd",
        "city": "Corte Madera",
        "state": "CA",
        "longitude": -122.51761399999998,
        "latitude": 37.93467100000004
    },
    {
        "name": "CostaMesa628",
        "street": "650 W 19th St",
        "city": "Costa Mesa",
        "state": "CA",
        "longitude": -117.92550599999998,
        "latitude": 33.64412900000008
    },
    {
        "name": "CrescentCity524",
        "street": "1475 Parkway Dr",
        "city": "Crescent City",
        "state": "CA",
        "longitude": -124.18451699999997,
        "latitude": 41.77168000000006
    },
    {
        "name": "CulverCity514",
        "street": "11400 W Washington Blvd",
        "city": "Los Angeles",
        "state": "CA",
        "longitude": -118.4151220314275,
        "latitude": 34.002635983751446
    },
    {
        "name": "DalyCity599",
        "street": "1500 Sullivan Ave",
        "city": "Daly City",
        "state": "CA",
        "longitude": -122.47280799999999,
        "latitude": 37.689265000000034
    },
    {
        "name": "Davis598",
        "street": "505 Pole Line Rd",
        "city": "Davis",
        "state": "CA",
        "longitude": -121.72721599999994,
        "latitude": 38.549344000000076
    },
    {
        "name": "Delano615",
        "street": "631 Jefferson St",
        "city": "Delano",
        "state": "CA",
        "longitude": -119.24388499999998,
        "latitude": 35.76507000000004
    },
    {
        "name": "ElCajon669",
        "street": "1450 Graves Ave",
        "city": "El Cajon",
        "state": "CA",
        "longitude": -116.95986599999998,
        "latitude": 32.81733600000007
    },
    {
        "name": "ElCentro527",
        "street": "233 N Imperial Ave",
        "city": "El Centro",
        "state": "CA",
        "longitude": -115.56960799999996,
        "latitude": 32.79474400000004
    },
    {
        "name": "ElCerrito556",
        "street": "6400 Manila Ave",
        "city": "El Cerrito",
        "state": "CA",
        "longitude": -122.31018499999999,
        "latitude": 37.91608000000008
    },
    {
        "name": "ElMonte685",
        "street": "4000 Arden Drive",
        "city": "El Monte",
        "state": "CA",
        "longitude": -118.04475799999994,
        "latitude": 34.080543000000034
    },
    {
        "name": "Eureka526",
        "street": "3300 Broadway Street Suite 906",
        "city": "Eureka",
        "state": "CA",
        "longitude": -124.19036597208603,
        "latitude": 40.78079098406283
    },
    {
        "name": "Fairfield621",
        "street": "160 Serrano Drive",
        "city": "Fairfield",
        "state": "CA",
        "longitude": -122.07293899999996,
        "latitude": 38.24670000000003
    },
    {
        "name": "FallRiverMills643",
        "street": "43467  Hwy 299 E.",
        "city": "Fall River Mills",
        "state": "CA",
        "longitude": -121.42816699999997,
        "latitude": 41.01972900000004
    },
    {
        "name": "Folsom655",
        "street": "323 E. Bidwell  #A",
        "city": "Folsom",
        "state": "Ca",
        "longitude": -121.16846999999996,
        "latitude": 38.673042000000066
    },
    {
        "name": "Fontana657",
        "street": "8026 Hemlock Ave",
        "city": "Fontana",
        "state": "CA",
        "longitude": -117.47703099999995,
        "latitude": 34.10782500000005
    },
    {
        "name": "FontanaCDTC699",
        "street": "10207 Poplar Ave",
        "city": "Fontana",
        "state": "CA",
        "longitude": -117.46184699999998,
        "latitude": 34.06780500000008
    },
    {
        "name": "FontanaDLPC688",
        "street": "16499 Merrill Avenue",
        "city": "Fontana",
        "state": "CA",
        "longitude": -117.44400699999994,
        "latitude": 34.091770000000054
    },
    {
        "name": "FortBragg590",
        "street": "410 S Franklin St",
        "city": "Fort Bragg",
        "state": "CA",
        "longitude": -123.804194,
        "latitude": 39.43792300000007
    },
    {
        "name": "Fremont644",
        "street": "4287 Central Ave",
        "city": "Fremont",
        "state": "CA",
        "longitude": -122.00717199999997,
        "latitude": 37.55330500000008
    },
    {
        "name": "Fresno505",
        "street": "655 W Olive Ave",
        "city": "Fresno",
        "state": "CA",
        "longitude": -119.8197910375054,
        "latitude": 36.7571649825001
    },
    {
        "name": "FresnoCDTC215",
        "street": "735 E North Ave",
        "city": "Fresno",
        "state": "CA",
        "longitude": -119.77655500163164,
        "latitude": 36.691738989526286
    },
    {
        "name": "FresnoNorth646",
        "street": "6420 N Blackstone Ave",
        "city": "Fresno",
        "state": "CA",
        "longitude": -119.78857099999999,
        "latitude": 36.83048500000007
    },
    {
        "name": "Fullerton607",
        "street": "909 W Valencia Dr",
        "city": "Fullerton",
        "state": "CA",
        "longitude": -117.94077499999997,
        "latitude": 33.86705200000006
    },
    {
        "name": "Garberville627",
        "street": "1180 Evergreen Rd",
        "city": "Redway",
        "state": "CA",
        "longitude": -123.80065600564734,
        "latitude": 40.12082201434339
    },
    {
        "name": "GardenaCDTC498",
        "street": "14825 S Avalon Blvd",
        "city": "Gardena",
        "state": "CA",
        "longitude": -118.26624199667305,
        "latitude": 33.8970180106801
    },
    {
        "name": "Gilroy623",
        "street": "6984 Automall Pkwy.",
        "city": "Suite A Gilroy",
        "state": "CA",
        "longitude": -121.55880899999994,
        "latitude": 37.00164200000006
    },
    {
        "name": "Glendale510",
        "street": "1335 W Glenoaks Blvd",
        "city": "Glendale",
        "state": "CA",
        "longitude": -118.28337499999998,
        "latitude": 34.16699200000005
    },
    {
        "name": "Goleta670",
        "street": "7127 Hollister Ave.  #24/26",
        "city": "Goleta",
        "state": "CA",
        "longitude": -119.87674699999997,
        "latitude": 34.428874000000064
    },
    {
        "name": "GrassValley541",
        "street": "890 Sutton Way",
        "city": "Grass Valley",
        "state": "CA",
        "longitude": -121.03493599999996,
        "latitude": 39.23570300000006
    },
    {
        "name": "Hanford565",
        "street": "701 W Hanford Armona Rd",
        "city": "Hanford",
        "state": "CA",
        "longitude": -119.65555199999994,
        "latitude": 36.31297600000005
    },
    {
        "name": "Hawthorne609",
        "street": "3700 W El Segundo Blvd",
        "city": "Hawthorne",
        "state": "CA",
        "longitude": -118.33806599999997,
        "latitude": 33.91548300000005
    },
    {
        "name": "Hayward579",
        "street": "150 Jackson St",
        "city": "Hayward",
        "state": "CA",
        "longitude": -122.08745999999996,
        "latitude": 37.65936400000004
    },
    {
        "name": "Hemet635",
        "street": "1200 S State St",
        "city": "Hemet",
        "state": "CA",
        "longitude": -116.96986299999998,
        "latitude": 33.72785300000004
    },
    {
        "name": "Hollister546",
        "street": "80 N Sally St",
        "city": "Hollister",
        "state": "CA",
        "longitude": -121.40018699999996,
        "latitude": 36.858156000000065
    },
    {
        "name": "HollywoodCole508",
        "street": "803 Cole Ave Central LA",
        "city": "Los Angeles",
        "state": "CA",
        "longitude": -118.33022599999998,
        "latitude": 34.085563000000036
    },
    {
        "name": "HollywoodWest652",
        "street": "936 N Formosa Ave",
        "city": "West Hollywood",
        "state": "CA",
        "longitude": -118.34576399999997,
        "latitude": 34.088339000000076
    },
    {
        "name": "Indio578",
        "street": "44480 Jackson St",
        "city": "Indio",
        "state": "CA",
        "longitude": -116.21578299999999,
        "latitude": 33.726222000000064
    },
    {
        "name": "Inglewood610",
        "street": "621 N La Brea Ave",
        "city": "Inglewood",
        "state": "CA",
        "longitude": -118.35718499999996,
        "latitude": 33.96996000000007
    },
    {
        "name": "Jackson521",
        "street": "201 Clinton Rd",
        "city": "Jackson",
        "state": "CA",
        "longitude": -120.76431799999995,
        "latitude": 38.34242900000004
    },
    {
        "name": "KingCity647",
        "street": "101 E San Antonio Dr.",
        "city": "King City",
        "state": "CA",
        "longitude": -121.12731199999996,
        "latitude": 36.22242200000005
    },
    {
        "name": "LagunaHills605",
        "street": "23535 Moulton Pkwy",
        "city": "Laguna Hills",
        "state": "CA",
        "longitude": -117.73279899999994,
        "latitude": 33.620580000000075
    },
    {
        "name": "LakeIsabella687",
        "street": "5520 Lake Isabella Rd.  #G-1",
        "city": "Lake Isabella",
        "state": "CA",
        "longitude": -118.47676099999995,
        "latitude": 35.61687400000005
    },
    {
        "name": "Lakeport530",
        "street": "965 Parallel Dr",
        "city": "Lakeport",
        "state": "CA",
        "longitude": -122.92722699999996,
        "latitude": 39.03587600000003
    },
    {
        "name": "Lancaster595",
        "street": "720 West Ave. L6",
        "city": "Lancaster",
        "state": "Ca",
        "longitude": -118.14378961283334,
        "latitude": 34.65478274648965
    },
    {
        "name": "LincolnPark617",
        "street": "3529 N Mission Rd",
        "city": "Los Angeles",
        "state": "CA",
        "longitude": -118.20267899999999,
        "latitude": 34.06913300000008
    },
    {
        "name": "Lodi622",
        "street": "1222 Pixley Parkway",
        "city": "Lodi",
        "state": "CA",
        "longitude": -121.25152399999996,
        "latitude": 38.118742000000054
    },
    {
        "name": "Lompoc692",
        "street": "1601 N H St",
        "city": "Lompoc",
        "state": "CA",
        "longitude": -120.45836799999995,
        "latitude": 34.66352000000006
    },
    {
        "name": "LongBeach507",
        "street": "3700 E Willow St",
        "city": "Long Beach",
        "state": "CA",
        "longitude": -118.14945199999994,
        "latitude": 33.803616000000034
    },
    {
        "name": "LosAngeles502",
        "street": "3615 S Hope St",
        "city": "Los Angeles",
        "state": "CA",
        "longitude": -118.279136,
        "latitude": 34.01805400000006
    },
    {
        "name": "LosBanos650",
        "street": "814 W L St",
        "city": "Los Banos",
        "state": "CA",
        "longitude": -120.86285899999996,
        "latitude": 37.059889000000055
    },
    {
        "name": "LosGatos640",
        "street": "600 N Santa Cruz Ave",
        "city": "Los Gatos",
        "state": "CA",
        "longitude": -121.97801099999998,
        "latitude": 37.23387100000008
    },
    {
        "name": "Madera533",
        "street": "1206 Maple St",
        "city": "Madera",
        "state": "CA",
        "longitude": -120.07260299999996,
        "latitude": 36.94977300000005
    },
    {
        "name": "Manteca658",
        "street": "955 Davis St",
        "city": "Manteca",
        "state": "CA",
        "longitude": -121.22997399999997,
        "latitude": 37.80082100000004
    },
    {
        "name": "Mariposa566",
        "street": "5264 Hwy. 49  North",
        "city": "Mariposa",
        "state": "CA",
        "longitude": -119.97979699999996,
        "latitude": 37.49621300000007
    },
    {
        "name": "MendotaTravelRun822",
        "street": "655 Quince St",
        "city": "Mendota",
        "state": "CA",
        "longitude": -120.38217599999996,
        "latitude": 36.75422400000008
    },
    {
        "name": "Merced536",
        "street": "1313 W 12th St",
        "city": "Merced",
        "state": "CA",
        "longitude": -120.49846999999994,
        "latitude": 37.301356000000055
    },
    {
        "name": "Modesto557",
        "street": "124 Burney St",
        "city": "Modesto",
        "state": "CA",
        "longitude": -120.98800299999999,
        "latitude": 37.63913300000007
    },
    {
        "name": "Montebello511",
        "street": "424 N Wilcox Ave",
        "city": "Montebello",
        "state": "CA",
        "longitude": -118.12255199999998,
        "latitude": 34.01943000000006
    },
    {
        "name": "Mt.Shasta639",
        "street": "154 Morgan Way",
        "city": "Mount Shasta",
        "state": "CA",
        "longitude": -122.31540199999995,
        "latitude": 41.308636000000035
    },
    {
        "name": "Napa540",
        "street": "2550 Napa Valley Corporate Dr",
        "city": "Napa",
        "state": "CA",
        "longitude": -122.27408599999995,
        "latitude": 38.25536800000003
    },
    {
        "name": "Needles584",
        "street": "1040 E. Broadway",
        "city": "Needles",
        "state": "CA",
        "longitude": -114.59484199999997,
        "latitude": 34.82434900000004
    },
    {
        "name": "Newhall662",
        "street": "24427 Newhall Ave",
        "city": "Newhall",
        "state": "CA",
        "longitude": -118.53315599999996,
        "latitude": 34.379526000000055
    },
    {
        "name": "Norco586",
        "street": "3201 Horseless Carriage Dr",
        "city": "Norco",
        "state": "CA",
        "longitude": -117.56144999999998,
        "latitude": 33.928112000000056
    },
    {
        "name": "Novato686",
        "street": "936  7th St.  Ste. A",
        "city": "Novato",
        "state": "CA",
        "longitude": -122.57757003539129,
        "latitude": 38.10747998678474
    },
    {
        "name": "OaklandClaremont504",
        "street": "5300 Claremont Ave. 1st Flr.",
        "city": "Oakland",
        "state": "CA",
        "longitude": -122.25976799999995,
        "latitude": 37.83959100000004
    },
    {
        "name": "OaklandColiseum604",
        "street": "501 85th Ave",
        "city": "Oakland",
        "state": "CA",
        "longitude": -122.19319598851408,
        "latitude": 37.73955399996581
    },
    {
        "name": "Oceanside596",
        "street": "4005 Plaza Dr.",
        "city": "Oceanside",
        "state": "CA",
        "longitude": -117.28837499999997,
        "latitude": 33.183012000000076
    },
    {
        "name": "Oroville522",
        "street": "775 Mitchell Ave",
        "city": "Oroville",
        "state": "CA",
        "longitude": -121.56511999999998,
        "latitude": 39.50414900000004
    },
    {
        "name": "Oxnard636",
        "street": "4050 Saviers Rd",
        "city": "Oxnard",
        "state": "CA",
        "longitude": -119.17690599999997,
        "latitude": 34.163200000000074
    },
    {
        "name": "PacoimaDLPC693",
        "street": "11623 Glenoaks Blvd",
        "city": "Pacoima",
        "state": "CA",
        "longitude": -118.41998797767795,
        "latitude": 34.28034700186939
    },
    {
        "name": "PalmDesert683",
        "street": "74740 Technology Dr",
        "city": "Palm Desert",
        "state": "CA",
        "longitude": -116.35659099999998,
        "latitude": 33.78530600000005
    },
    {
        "name": "PalmSprings659",
        "street": "950 N Farrell Dr",
        "city": "Palm Springs",
        "state": "CA",
        "longitude": -116.51903399999998,
        "latitude": 33.83677000000006
    },
    {
        "name": "Pasadena509",
        "street": "49 S Rosemead Blvd",
        "city": "Pasadena",
        "state": "CA",
        "longitude": -118.07386599999995,
        "latitude": 34.14519800000005
    },
    {
        "name": "PasoRobles574",
        "street": "841 Park St",
        "city": "Paso Robles",
        "state": "CA",
        "longitude": -120.69020699999999,
        "latitude": 35.623259000000076
    },
    {
        "name": "Petaluma634",
        "street": "715-J  Southpoint Blvd. Petaluma",
        "city": "Petaluma",
        "state": "CA",
        "longitude": -122.64617599999997,
        "latitude": 38.25735600000007
    },
    {
        "name": "Pittsburg592",
        "street": "1399 Buchanan Rd",
        "city": "Pittsburg",
        "state": "CA",
        "longitude": -121.87184499999995,
        "latitude": 37.999037000000044
    },
    {
        "name": "Placerville525",
        "street": "2919 Cold Springs Rd",
        "city": "Placerville",
        "state": "CA",
        "longitude": -120.82508899999999,
        "latitude": 38.73458700000003
    },
    {
        "name": "Pleasanton631",
        "street": "6300 W Las Positas Blvd",
        "city": "Pleasanton",
        "state": "CA",
        "longitude": -121.905757,
        "latitude": 37.68011300000006
    },
    {
        "name": "Pomona532",
        "street": "1600 S Garey Ave",
        "city": "Pomona",
        "state": "CA",
        "longitude": -117.74928799999998,
        "latitude": 34.04214500000006
    },
    {
        "name": "Porterville573",
        "street": "329 E Olive Ave",
        "city": "Porterville",
        "state": "CA",
        "longitude": -119.009278,
        "latitude": 36.06329800000003
    },
    {
        "name": "Poway676",
        "street": "13461 Community Rd",
        "city": "Poway",
        "state": "CA",
        "longitude": -117.04044965984856,
        "latitude": 32.95972430851396
    },
    {
        "name": "Quincy544",
        "street": "1953 E Main St. #3.",
        "city": "Quincy",
        "state": "CA",
        "longitude": -120.90266199999996,
        "latitude": 39.93471600000004
    },
    {
        "name": "RanchoCucamonga612",
        "street": "8629 Hellman Ave",
        "city": "Rancho Cucamonga",
        "state": "CA",
        "longitude": -117.60165799999999,
        "latitude": 34.097095000000024
    },
    {
        "name": "RedBluff558",
        "street": "675 Monroe St.",
        "city": "Red Bluff",
        "state": "CA",
        "longitude": -122.23900299999997,
        "latitude": 40.17476800000003
    },
    {
        "name": "Redding551",
        "street": "2135 Civic Center Dr",
        "city": "Redding",
        "state": "CA",
        "longitude": -122.38019199999997,
        "latitude": 40.57563300000004
    },
    {
        "name": "Redlands626",
        "street": "1659 W Lugonia Ave",
        "city": "Redlands",
        "state": "CA",
        "longitude": -117.21253099999996,
        "latitude": 34.069889000000046
    },
    {
        "name": "RedwoodCity548",
        "street": "300 Brewster Ave",
        "city": "Redwood City",
        "state": "CA",
        "longitude": -122.22905999999995,
        "latitude": 37.492635000000064
    },
    {
        "name": "Reedley633",
        "street": "558 E Dinuba Ave",
        "city": "Reedley",
        "state": "CA",
        "longitude": -119.44327199999998,
        "latitude": 36.59012700000005
    },
    {
        "name": "Ridgecrest577",
        "street": "540 Perdew Ave.  #A",
        "city": "Ridgecrest",
        "state": "CA",
        "longitude": -117.68084699999997,
        "latitude": 35.64904500000006
    },
    {
        "name": "Riverside545",
        "street": "6280 Brockton Ave",
        "city": "Riverside",
        "state": "CA",
        "longitude": -117.39631599999996,
        "latitude": 33.957641000000024
    },
    {
        "name": "RiversideEast656",
        "street": "6425 Sycamore Canyon Blvd",
        "city": "Riverside",
        "state": "CA",
        "longitude": -117.29929799999996,
        "latitude": 33.93449900000007
    },
    {
        "name": "Rocklin673",
        "street": "5245 S Grove St",
        "city": "Rocklin",
        "state": "CA",
        "longitude": -121.23181799999998,
        "latitude": 38.78741700000006
    },
    {
        "name": "Roseville543",
        "street": "7200 Galilee Rd",
        "city": "Roseville",
        "state": "CA",
        "longitude": -121.30485800155665,
        "latitude": 38.77635699174198
    },
    {
        "name": "Sacramento010",
        "street": "1020 N Street",
        "city": "Sacramento",
        "state": "CA",
        "longitude": -121.4948648500698,
        "latitude": 38.57538661387534
    },
    {
        "name": "Sacramento501",
        "street": "4700 Broadway",
        "city": "Sacramento",
        "state": "CA",
        "longitude": -121.45084499999996,
        "latitude": 38.54611100000005
    },
    {
        "name": "Salinas539",
        "street": "260 E Laurel Dr",
        "city": "Salinas",
        "state": "CA",
        "longitude": -121.64738499999999,
        "latitude": 36.697827000000075
    },
    {
        "name": "SanAndreas568",
        "street": "745 Mountain Ranch Rd",
        "city": "San Andreas",
        "state": "CA",
        "longitude": -120.67115399999994,
        "latitude": 38.191076000000066
    },
    {
        "name": "SanBernardino512",
        "street": "1310 N Waterman Ave",
        "city": "San Bernardino",
        "state": "CA",
        "longitude": -117.27921599999996,
        "latitude": 34.12369600000005
    },
    {
        "name": "SanClemente648",
        "street": "2727 Via Cascadita",
        "city": "San Clemente",
        "state": "CA",
        "longitude": -117.64232199999998,
        "latitude": 33.44286800000003
    },
    {
        "name": "SanDiego519",
        "street": "4375 Derrick Dr",
        "city": "San Diego",
        "state": "CA",
        "longitude": -117.18230799999998,
        "latitude": 32.82320600000003
    },
    {
        "name": "SanDiegoNormal506",
        "street": "3960 Normal St",
        "city": "San Diego",
        "state": "CA",
        "longitude": -117.14929899999998,
        "latitude": 32.75054700000004
    },
    {
        "name": "SanFrancisco503",
        "street": "1377 Fell St",
        "city": "San Francisco",
        "state": "CA",
        "longitude": -122.44046699999996,
        "latitude": 37.77335300000004
    },
    {
        "name": "SanJose516",
        "street": "111 W Alma Ave",
        "city": "San Jose",
        "state": "CA",
        "longitude": -121.87671099999994,
        "latitude": 37.314940000000036
    },
    {
        "name": "SanJoseDLPC645",
        "street": "2222 Senter Road",
        "city": "San Jose",
        "state": "CA",
        "longitude": -121.85000799999995,
        "latitude": 37.311127000000056
    },
    {
        "name": "SanLuisObispo547",
        "street": "3190 S Higuera St",
        "city": "San Luis Obispo",
        "state": "CA",
        "longitude": -120.66924199999994,
        "latitude": 35.257528000000036
    },
    {
        "name": "SanMarcos689",
        "street": "590 Rancheros Drive",
        "city": "San Marcos",
        "state": "CA",
        "longitude": -117.14740199999994,
        "latitude": 33.14067200000005
    },
    {
        "name": "SanMateo593",
        "street": "425 N Amphlett Blvd",
        "city": "San Mateo",
        "state": "CA",
        "longitude": -122.32410799999997,
        "latitude": 37.578711000000055
    },
    {
        "name": "SanPedro619",
        "street": "1511 N Gaffey St",
        "city": "San Pedro",
        "state": "CA",
        "longitude": -118.29309899999998,
        "latitude": 33.75836300000003
    },
    {
        "name": "SantaAna542",
        "street": "1330 E First St",
        "city": "Santa Ana",
        "state": "CA",
        "longitude": -117.85058899999996,
        "latitude": 33.74478800000003
    },
    {
        "name": "SantaBarbara549",
        "street": "535 Castillo St",
        "city": "Santa Barbara",
        "state": "CA",
        "longitude": -119.70136099999996,
        "latitude": 34.413099000000045
    },
    {
        "name": "SantaClara632",
        "street": "3665 Flora Vista Ave",
        "city": "Santa Clara",
        "state": "CA",
        "longitude": -121.99397399999998,
        "latitude": 37.35011900000006
    },
    {
        "name": "SantaMaria563",
        "street": "523 S McClelland St",
        "city": "Santa Maria",
        "state": "CA",
        "longitude": -120.43473599999999,
        "latitude": 34.947538000000065
    },
    {
        "name": "SantaMonica616",
        "street": "2235 Colorado Ave",
        "city": "Santa Monica",
        "state": "CA",
        "longitude": -118.47505099999995,
        "latitude": 34.028170000000046
    },
    {
        "name": "SantaPaula630",
        "street": "250 W. Harvard Blvd.  #A",
        "city": "Santa Paula",
        "state": "CA",
        "longitude": -119.07542399999994,
        "latitude": 34.34457100000003
    },
    {
        "name": "SantaRosa555",
        "street": "2570 Corby Ave",
        "city": "Santa Rosa",
        "state": "CA",
        "longitude": -122.71683599999994,
        "latitude": 38.41499300000004
    },
    {
        "name": "SantaTeresa668",
        "street": "180 Martinvale Ln",
        "city": "San Jose",
        "state": "CA",
        "longitude": -121.77802699700837,
        "latitude": 37.229753992161605
    },
    {
        "name": "SanYsidro677",
        "street": "6111 Business Center Ct",
        "city": "San Diego",
        "state": "CA",
        "longitude": -117.00330803962578,
        "latitude": 32.568902015950954
    },
    {
        "name": "Seaside567",
        "street": "1180 Canyon Del Rey Blvd",
        "city": "Seaside",
        "state": "CA",
        "longitude": -121.85316499999999,
        "latitude": 36.60269000000005
    },
    {
        "name": "Shafter660",
        "street": "548 Walker St",
        "city": "Shafter",
        "state": "CA",
        "longitude": -119.27258699999999,
        "latitude": 35.50335700000005
    },
    {
        "name": "SimiValley680",
        "street": "3855-D  Alamo St.",
        "city": "Simi Valley",
        "state": "CA",
        "longitude": -118.72205399999996,
        "latitude": 34.28826200000003
    },
    {
        "name": "Sonora569",
        "street": "885 Morning Star Drive",
        "city": "Sonora",
        "state": "CA",
        "longitude": -120.37006899999994,
        "latitude": 37.984503000000075
    },
    {
        "name": "SouthLakeTahoe538",
        "street": "3344 Lake Tahoe Blvd.  #B",
        "city": "South Lake Tahoe",
        "state": "CA",
        "longitude": -119.96969098223825,
        "latitude": 38.94536700516258
    },
    {
        "name": "SouthSacramento602",
        "street": "7775 La Mancha Way",
        "city": "Sacramento",
        "state": "CA",
        "longitude": -121.42667699999998,
        "latitude": 38.476755000000026
    },
    {
        "name": "Stockton517",
        "street": "55 South Lincoln Street",
        "city": "Stockton",
        "state": "CA",
        "longitude": -121.29775799999999,
        "latitude": 37.95066000000003
    },
    {
        "name": "stoneridge664",
        "street": "2621 Stoneridge Mall",
        "city": "Pleasanton",
        "state": "CA",
        "longitude": -121.92874803297629,
        "latitude": 37.695302999436535
    },
    {
        "name": "Susanville531",
        "street": "2615 Main St",
        "city": "Susanville",
        "state": "CA",
        "longitude": -120.63777799999997,
        "latitude": 40.41240000000005
    },
    {
        "name": "Taft575",
        "street": "165 Center St",
        "city": "Taft",
        "state": "CA",
        "longitude": -119.45450699999998,
        "latitude": 35.13931400000007
    },
    {
        "name": "Temecula672",
        "street": "27851 Diaz Rd",
        "city": "Temecula",
        "state": "CA",
        "longitude": -117.16128499999996,
        "latitude": 33.50610500000005
    },
    {
        "name": "ThousandOaks663",
        "street": "1810 East Avenida De Los Arboles",
        "city": "Thousand Oaks",
        "state": "CA",
        "longitude": -118.84415399999995,
        "latitude": 34.21083100000004
    },
    {
        "name": "Torrance608",
        "street": "1785 W 220th St",
        "city": "Torrance",
        "state": "CA",
        "longitude": -118.31109599999996,
        "latitude": 33.82851500000004
    },
    {
        "name": "Tracy642",
        "street": "2785 Auto Plaza Drive",
        "city": "Tracy",
        "state": "CA",
        "longitude": -121.46770499999997,
        "latitude": 37.76254600000004
    },
    {
        "name": "Truckee513",
        "street": "11357 Donner Pass Rd.  #1",
        "city": "Truckee",
        "state": "CA",
        "longitude": -120.2091069706758,
        "latitude": 39.325562002754566
    },
    {
        "name": "Tulare594",
        "street": "274 E Cross Ave",
        "city": "Tulare",
        "state": "CA",
        "longitude": -119.346229,
        "latitude": 36.21387400000003
    },
    {
        "name": "Tulelake553",
        "street": "399 Main St",
        "city": "Tulelake",
        "state": "CA",
        "longitude": -121.47699199999994,
        "latitude": 41.95620300000007
    },
    {
        "name": "Turlock649",
        "street": "825 E Monte Vista Ave",
        "city": "Turlock",
        "state": "CA",
        "longitude": -120.83940299999995,
        "latitude": 37.52259000000004
    },
    {
        "name": "TwentyninePalms638",
        "street": "3668 Adobe Rd.  #G-J",
        "city": "Twentynine Palms",
        "state": "CA",
        "longitude": -116.05541599999998,
        "latitude": 34.187194000000034
    },
    {
        "name": "Ukiah535",
        "street": "542 S Orchard Ave",
        "city": "Ukiah",
        "state": "CA",
        "longitude": -123.19948499999998,
        "latitude": 39.147624000000064
    },
    {
        "name": "Vacaville588",
        "street": "621 Orange Dr",
        "city": "Vacaville",
        "state": "CA",
        "longitude": -121.94486399999994,
        "latitude": 38.37836800000008
    },
    {
        "name": "Vallejo554",
        "street": "200 Couch St",
        "city": "Vallejo",
        "state": "CA",
        "longitude": -122.25143999999995,
        "latitude": 38.11723800000004
    },
    {
        "name": "VanNuys515",
        "street": "14920 Vanowen St",
        "city": "Van Nuys",
        "state": "CA",
        "longitude": -118.45831799999996,
        "latitude": 34.193434000000025
    },
    {
        "name": "Ventura560",
        "street": "4260 Market St",
        "city": "Ventura",
        "state": "CA",
        "longitude": -119.23633799999999,
        "latitude": 34.25662700000004
    },
    {
        "name": "Victorville629",
        "street": "14855 Corta Dr",
        "city": "Victorville",
        "state": "CA",
        "longitude": -117.30519199999998,
        "latitude": 34.51988200000005
    },
    {
        "name": "Visalia559",
        "street": "1711 E. Main",
        "city": "Visalia",
        "state": "CA",
        "longitude": -119.27361799999994,
        "latitude": 36.32936300000006
    },
    {
        "name": "WalnutCreek624",
        "street": "",
        "city": "Walnut Creek",
        "state": "CA",
        "longitude": -122.06087499999995,
        "latitude": 37.905430000000024
    },
    {
        "name": "Watsonville583",
        "street": "90 Alta Vista Ave",
        "city": "Watsonville",
        "state": "CA",
        "longitude": -121.76804499999997,
        "latitude": 36.92747000000003
    },
    {
        "name": "Weaverville572",
        "street": "1511 Main St",
        "city": "Weaverville",
        "state": "CA",
        "longitude": -122.92881699999998,
        "latitude": 40.723073000000056
    },
    {
        "name": "WestCovina618",
        "street": "800 S Glendora Ave",
        "city": "West Covina",
        "state": "CA",
        "longitude": -117.93153099999995,
        "latitude": 34.06099700000004
    },
    {
        "name": "Westminster611",
        "street": "13700 Hoover St",
        "city": "Westminster",
        "state": "CA",
        "longitude": -117.99793899999997,
        "latitude": 33.764166000000046
    },
    {
        "name": "Whittier591",
        "street": "9338  S. Painter Ave.",
        "city": "Whittier",
        "state": "CA",
        "longitude": -118.04304399999995,
        "latitude": 33.95258000000007
    },
    {
        "name": "Willows571",
        "street": "815 N Humboldt Ave",
        "city": "Willows",
        "state": "CA",
        "longitude": -122.21251299999994,
        "latitude": 39.529724000000044
    },
    {
        "name": "Winnetka637",
        "street": "20725 Sherman Way",
        "city": "Winnetka",
        "state": "CA",
        "longitude": -118.58470499999999,
        "latitude": 34.201433000000065
    },
    {
        "name": "Woodland561",
        "street": "825 East St.  #306",
        "city": "Woodland",
        "state": "CA",
        "longitude": -121.7635470078157,
        "latitude": 38.668965994691916
    },
    {
        "name": "WSacramento697",
        "street": "2528 Evergreen Ave",
        "city": "West Sacramento",
        "state": "CA",
        "longitude": -121.54537099999999,
        "latitude": 38.57731400000006
    },
    {
        "name": "Yreka552",
        "street": "1848 Fort Jones Rd",
        "city": "Yreka",
        "state": "CA",
        "longitude": -122.64457099999998,
        "latitude": 41.70013800000004
    },
    {
        "name": "YubaCity562",
        "street": "1570 Poole Blvd",
        "city": "Yuba City",
        "state": "CA",
        "longitude": -121.64329399999997,
        "latitude": 39.14403200000004
    }
]
